"Buffer","Agency","Line(s)","Station Name","Year Opened","Latitude","Longitude"
"Existing Transit","Amtrak ","Hiawatha","Amtrak Milwaukee","Pre-2000",43.0345,-87.9166
"Existing Transit","Amtrak ","Hiawatha","Milwaukee General Mitchell Int Airport","Pre-2000",42.940747650094,-87.92457103729248
"Existing Transit","Amtrak ","Hiawatha","Sturtevant","Pre-2000",42.718708984619674,-87.90597259998322
"Existing Transit","CTA","Blue Line","Addison-Blue","Pre-2000",41.94738,-87.71906
"Existing Transit","CTA","Blue Line","Austin-Blue","Pre-2000",41.870851,-87.776812
"Existing Transit","CTA","Blue Line","Belmont-Blue","Pre-2000",41.938132,-87.712359
"Existing Transit","CTA","Blue Line","California-O'Hare","Pre-2000",41.921939,-87.69689
"Existing Transit","CTA","Blue Line","Chicago-Blue","Pre-2000",41.896075,-87.655214
"Existing Transit","CTA","Blue Line","Cicero-Forest Park","Pre-2000",41.871574,-87.745154
"Existing Transit","CTA","Blue Line","Clinton-Blue","Pre-2000",41.875539,-87.640984
"Existing Transit","CTA","Blue Line","Cumberland","Pre-2000",41.984246,-87.838028
"Existing Transit","CTA","Blue Line","Damen-O'Hare","Pre-2000",41.909744,-87.677437
"Existing Transit","CTA","Blue Line","Division","Pre-2000",41.903355,-87.666496
"Existing Transit","CTA","Blue Line","Forest Park","Pre-2000",41.874257,-87.817318
"Existing Transit","CTA","Blue Line","Grand-Blue","Pre-2000",41.891189,-87.647578
"Existing Transit","CTA","Blue Line","Harlem-Forest Park","Pre-2000",41.87349,-87.806961
"Existing Transit","CTA","Blue Line","Harlem-O'Hare","Pre-2000",41.98227,-87.8089
"Existing Transit","CTA","Blue Line","Illinois Medical District","Pre-2000",41.875706,-87.673932
"Existing Transit","CTA","Blue Line","Irving Park-Blue","Pre-2000",41.952925,-87.729229
"Existing Transit","CTA","Blue Line","Jackson-Blue","Pre-2000",41.878183,-87.629296
"Existing Transit","CTA","Blue Line","Jefferson Park","Pre-2000",41.970634,-87.760892
"Existing Transit","CTA","Blue Line","Kedzie-Homan","Pre-2000",41.874341,-87.70604
"Existing Transit","CTA","Blue Line","LaSalle","Pre-2000",41.875568,-87.631722
"Existing Transit","CTA","Blue Line","Logan Square","Pre-2000",41.929728,-87.708541
"Existing Transit","CTA","Blue Line","Monroe-Blue","Pre-2000",41.880703,-87.629378
"Existing Transit","CTA","Blue Line","Montrose-Blue","Pre-2000",41.961539,-87.743574
"Existing Transit","CTA","Blue Line","Oak Park-Blue","Pre-2000",41.872108,-87.791602
"Existing Transit","CTA","Blue Line","O'Hare","Pre-2000",41.97766526,-87.90422307
"Existing Transit","CTA","Blue Line","Pulaski-Forest Park","Pre-2000",41.873797,-87.725663
"Existing Transit","CTA","Blue Line","Racine","Pre-2000",41.87592,-87.659458
"Existing Transit","CTA","Blue Line","Rosemont","Pre-2000",41.983507,-87.859388
"Existing Transit","CTA","Blue Line","UIC-Halsted","Pre-2000",41.875474,-87.649707
"Existing Transit","CTA","Blue Line","Washington-Blue","Pre-2000",41.883164,-87.62944
"Existing Transit","CTA","Blue Line","Western-Forest Park","Pre-2000",41.875478,-87.688436
"Existing Transit","CTA","Blue Line","Western-O'Hare","Pre-2000",41.916157,-87.687364
"Existing Transit","CTA","Brown Line","Addison-Brown","Pre-2000",41.947028,-87.674642
"Existing Transit","CTA","Brown Line","Damen-Brown","Pre-2000",41.966286,-87.678639
"Existing Transit","CTA","Brown Line","Francisco","Pre-2000",41.966046,-87.701644
"Existing Transit","CTA","Brown Line","Irving Park-Brown","Pre-2000",41.954521,-87.674868
"Existing Transit","CTA","Brown Line","Kedzie-Brown","Pre-2000",41.965996,-87.708821
"Existing Transit","CTA","Brown Line","Kimball","Pre-2000",41.967901,-87.713065
"Existing Transit","CTA","Brown Line","Montrose-Brown","Pre-2000",41.961756,-87.675047
"Existing Transit","CTA","Brown Line","Paulina","Pre-2000",41.943623,-87.670907
"Existing Transit","CTA","Brown Line","Rockwell","Pre-2000",41.966115,-87.6941
"Existing Transit","CTA","Brown Line","Southport","Pre-2000",41.943744,-87.663619
"Existing Transit","CTA","Brown Line","Western-Brown","Pre-2000",41.966163,-87.688502
"Existing Transit","CTA","Brown Line, Orange Line, Pink Line, Blue Line, Green Line, Purple Line","Clark/Lake (Subway)","Pre-2000",41.885737,-87.630886
"Existing Transit","CTA","Brown Line, Pink Line, Purple Line, Orange Line","Quincy/Wells","Pre-2000",41.878723,-87.63374
"Existing Transit","CTA","Brown Line, Purple Line","Diversey","Pre-2000",41.932732,-87.653131
"Existing Transit","CTA","Brown Line, Purple Line","Sedgwick","Pre-2000",41.910409,-87.639302
"Existing Transit","CTA","Brown Line, Purple Line","Wellington","Pre-2000",41.936033,-87.653266
"Existing Transit","CTA","Brown Line, Purple Line, Orange Line, Pink Line, Green Line","Randolph/Wabash","Pre-2000",41.884431,-87.626149
"Existing Transit","CTA","Brown Line, Purple Line, Pink Line, Green Line, Orange Line","Adams/Wabash","Pre-2000",41.879507,-87.626037
"Existing Transit","CTA","Green Line","35-Bronzeville-IIT","Pre-2000",41.831677,-87.625826
"Existing Transit","CTA","Green Line","43rd","Pre-2000",41.816462,-87.619021
"Existing Transit","CTA","Green Line","47th-Green","Pre-2000",41.809209,-87.618826
"Existing Transit","CTA","Green Line","51st","Pre-2000",41.80209,-87.618487
"Existing Transit","CTA","Green Line","Ashland/63rd","Pre-2000",41.77886,-87.663766
"Existing Transit","CTA","Green Line","Austin-Green","Pre-2000",41.887293,-87.774135
"Existing Transit","CTA","Green Line","California-Green","Pre-2000",41.88422,-87.696234
"Existing Transit","CTA","Green Line","Central-Green","Pre-2000",41.887389,-87.76565
"Existing Transit","CTA","Green Line","Cicero-Green","Pre-2000",41.886519,-87.744698
"Existing Transit","CTA","Green Line","Conservatory","Pre-2000",41.884904,-87.716523
"Existing Transit","CTA","Green Line","East 63rd-Cottage Grove","Pre-2000",41.780309,-87.605857
"Existing Transit","CTA","Green Line","Garfield-Green","Pre-2000",41.795172,-87.618327
"Existing Transit","CTA","Green Line","Halsted-Green","Pre-2000",41.778943,-87.644244
"Existing Transit","CTA","Green Line","Harlem-Green","Pre-2000",41.886848,-87.803176
"Existing Transit","CTA","Green Line","Indiana","Pre-2000",41.821732,-87.621371
"Existing Transit","CTA","Green Line","Kedzie-Green","Pre-2000",41.884321,-87.706155
"Existing Transit","CTA","Green Line","King Drive","Pre-2000",41.78013,-87.615546
"Existing Transit","CTA","Green Line","Laramie","Pre-2000",41.887163,-87.754986
"Existing Transit","CTA","Green Line","Oak Park-Green","Pre-2000",41.886988,-87.793783
"Existing Transit","CTA","Green Line","Pulaski-Green","Pre-2000",41.885412,-87.725404
"Existing Transit","CTA","Green Line","Ridgeland","Pre-2000",41.887159,-87.783661
"Existing Transit","CTA","Green Line, Orange Line","Roosevelt (Elevated)","Pre-2000",41.867405,-87.62659
"Existing Transit","CTA","Green Line, Pink Line","Ashland-Lake","Pre-2000",41.885269,-87.666969
"Existing Transit","CTA","Green Line, Pink Line, Brown Line, Orange Line, Purple Line","Madison/Wabash","Pre-2000",41.882023,-87.626098
"Existing Transit","CTA","Orange Line","35th/Archer","Pre-2000",41.829353,-87.680622
"Existing Transit","CTA","Orange Line","Ashland-Orange","Pre-2000",41.839234,-87.665317
"Existing Transit","CTA","Orange Line","Halsted-Orange","Pre-2000",41.84678,-87.648088
"Existing Transit","CTA","Orange Line","Kedzie-Orange","Pre-2000",41.804236,-87.704406
"Existing Transit","CTA","Orange Line","Midway","Pre-2000",41.78661,-87.737875
"Existing Transit","CTA","Orange Line","Pulaski-Orange","Pre-2000",41.799756,-87.724493
"Existing Transit","CTA","Orange Line","Western-Orange","Pre-2000",41.804546,-87.684019
"Existing Transit","CTA","Orange Line, Pink Line, Brown Line, Purple Line","Harold Washington Library","Pre-2000",41.876862,-87.628196
"Existing Transit","CTA","Pink Line","18th","Pre-2000",41.857908,-87.669147
"Existing Transit","CTA","Pink Line","54th/Cermak","Pre-2000",41.85177331,-87.75669201
"Existing Transit","CTA","Pink Line","California-Cermak","Pre-2000",41.854109,-87.694774
"Existing Transit","CTA","Pink Line","Central Park","Pre-2000",41.853839,-87.714842
"Existing Transit","CTA","Pink Line","Cicero-Cermak","Pre-2000",41.85182,-87.745336
"Existing Transit","CTA","Pink Line","Damen-Cermak","Pre-2000",41.854517,-87.675975
"Existing Transit","CTA","Pink Line","Kedzie-Cermak","Pre-2000",41.853964,-87.705408
"Existing Transit","CTA","Pink Line","Kostner","Pre-2000",41.853751,-87.733258
"Existing Transit","CTA","Pink Line","Polk","Pre-2000",41.871551,-87.66953
"Existing Transit","CTA","Pink Line","Pulaski-Cermak","Pre-2000",41.853732,-87.724311
"Existing Transit","CTA","Pink Line","Western-Cermak","Pre-2000",41.854225,-87.685129
"Existing Transit","CTA","Pink Line, Green Line","Clinton-Green","Pre-2000",41.885678,-87.641782
"Existing Transit","CTA","Pink Line, Purple Line, Orange Line, Brown Line","Washington/Wells","Pre-2000",41.882695,-87.63378
"Existing Transit","CTA","Purple Line","Central-Purple","Pre-2000",42.063987,-87.685617
"Existing Transit","CTA","Purple Line","Davis","Pre-2000",42.04771,-87.683543
"Existing Transit","CTA","Purple Line","Dempster","Pre-2000",42.041655,-87.681602
"Existing Transit","CTA","Purple Line","Foster","Pre-2000",42.05416,-87.68356
"Existing Transit","CTA","Purple Line","Linden","Pre-2000",42.073153,-87.69073
"Existing Transit","CTA","Purple Line","Main","Pre-2000",42.033456,-87.679538
"Existing Transit","CTA","Purple Line","Noyes","Pre-2000",42.058282,-87.683337
"Existing Transit","CTA","Purple Line","South Boulevard","Pre-2000",42.027612,-87.678329
"Existing Transit","CTA","Purple Line, Brown Line","Armitage","Pre-2000",41.918217,-87.652644
"Existing Transit","CTA","Purple Line, Brown Line","Chicago-Brown","Pre-2000",41.89681,-87.635924
"Existing Transit","CTA","Purple Line, Brown Line","Merchandise Mart","Pre-2000",41.888969,-87.633924
"Existing Transit","CTA","Purple Line, Brown Line, Orange Line, Pink Line","LaSalle/Van Buren","Pre-2000",41.8768,-87.631739
"Existing Transit","CTA","Purple Line, Brown Line, Red Line","Fullerton","Pre-2000",41.925051,-87.652866
"Existing Transit","CTA","Purple Line, Pink Line, Green Line, Orange Line, Brown Line","State/Lake","Pre-2000",41.88574,-87.627835
"Existing Transit","CTA","Purple Line, Red Line, Brown Line","Belmont","Pre-2000",41.939751,-87.65338
"Existing Transit","CTA","Red Line","47th-Red","Pre-2000",41.810318,-87.63094
"Existing Transit","CTA","Red Line","63rd","Pre-2000",41.780536,-87.630952
"Existing Transit","CTA","Red Line","69th","Pre-2000",41.768367,-87.625724
"Existing Transit","CTA","Red Line","79th","Pre-2000",41.750419,-87.625112
"Existing Transit","CTA","Red Line","87th","Pre-2000",41.735372,-87.624717
"Existing Transit","CTA","Red Line","95th","Pre-2000",41.722377,-87.624342
"Existing Transit","CTA","Red Line","Addison-Red","Pre-2000",41.947428,-87.653626
"Existing Transit","CTA","Red Line","Argyle","Pre-2000",41.973453,-87.65853
"Existing Transit","CTA","Red Line","Berwyn","Pre-2000",41.977984,-87.658668
"Existing Transit","CTA","Red Line","Bryn Mawr","Pre-2000",41.983504,-87.65884
"Existing Transit","CTA","Red Line","Cermak-Chinatown","Pre-2000",41.853206,-87.630968
"Existing Transit","CTA","Red Line","Chicago-Red","Pre-2000",41.896671,-87.628176
"Existing Transit","CTA","Red Line","Clark/Division","Pre-2000",41.90392,-87.631412
"Existing Transit","CTA","Red Line","Garfield-Red","Pre-2000",41.79542,-87.631157
"Existing Transit","CTA","Red Line","Grand-Red","Pre-2000",41.891665,-87.628021
"Existing Transit","CTA","Red Line","Granville","Pre-2000",41.993664,-87.659202
"Existing Transit","CTA","Red Line","Harrison","Pre-2000",41.874039,-87.627479
"Existing Transit","CTA","Red Line","Jackson-Red","Pre-2000",41.878153,-87.627596
"Existing Transit","CTA","Red Line","Jarvis","Pre-2000",42.015876,-87.669092
"Existing Transit","CTA","Red Line","Lake","Pre-2000",41.884809,-87.627813
"Existing Transit","CTA","Red Line","Lawrence","Pre-2000",41.969139,-87.658493
"Existing Transit","CTA","Red Line","Loyola","Pre-2000",42.001073,-87.661061
"Existing Transit","CTA","Red Line","Monroe-Red","Pre-2000",41.880745,-87.627696
"Existing Transit","CTA","Red Line","Morse","Pre-2000",42.008362,-87.665909
"Existing Transit","CTA","Red Line","North/Clybourn","Pre-2000",41.910655,-87.649177
"Existing Transit","CTA","Red Line","Roosevelt (Subway)","Pre-2000",41.867368,-87.627402
"Existing Transit","CTA","Red Line","Sheridan","Pre-2000",41.953775,-87.654929
"Existing Transit","CTA","Red Line","Sox-35th","Pre-2000",41.831191,-87.630636
"Existing Transit","CTA","Red Line","Thorndale","Pre-2000",41.990259,-87.659076
"Existing Transit","CTA","Red Line","Wilson","Pre-2000",41.964273,-87.657588
"Existing Transit","CTA","Red Line, Purple Line, Yellow Line","Howard","Pre-2000",42.019063,-87.672892
"Existing Transit","CTA","Yellow Line","Skokie","Pre-2000",42.038951,-87.751919
"Existing Transit","KAT","Kenosha Historic Streetcar","10th Ave and 56th St","2001",42.58434815076,-87.823351746033
"Existing Transit","KAT","Kenosha Historic Streetcar","11th Ave and 56th St","2001",42.584204152548,-87.824542661377
"Existing Transit","KAT","Kenosha Historic Streetcar","2nd and 56th","2001",42.585685798571,-87.813644441742
"Existing Transit","KAT","Kenosha Historic Streetcar","3rd and 54th","2001",42.587265634354,-87.815264495988
"Existing Transit","KAT","Kenosha Historic Streetcar","3rd and 56th","2001",42.585543611378,-87.814835342545
"Existing Transit","KAT","Kenosha Historic Streetcar","4th and 54th","2001",42.587123450773,-87.816562685152
"Existing Transit","KAT","Kenosha Historic Streetcar","4th and 56th","2001",42.585385625237,-87.816133531708
"Existing Transit","KAT","Kenosha Historic Streetcar","54th St and 11th Ave","2001",42.586158,-87.824958
"Existing Transit","KAT","Kenosha Historic Streetcar","5th and 56th","2001",42.585180242655,-87.817260059494
"Existing Transit","KAT","Kenosha Historic Streetcar","6th and 54th","2001",42.586870679162,-87.818912300249
"Existing Transit","KAT","Kenosha Historic Streetcar","6th and 56th","2001",42.585069651754,-87.81857970633
"Existing Transit","KAT","Kenosha Historic Streetcar","7th and 56th","2001",42.584864268132,-87.819834980149
"Existing Transit","KAT","Kenosha Historic Streetcar","8th and 54th","2001",42.586633704845,-87.821519407411
"Existing Transit","KAT","Kenosha Historic Streetcar","8th Ave and 56th St","2001",42.584706280267,-87.820982965607
"Existing Transit","Metra","Burlington Northern(BNSF)","Aurora Metra","Pre-2000",41.7608333,-88.3083333
"Existing Transit","Metra","Burlington Northern(BNSF)","Belmont Metra","Pre-2000",41.7952778,-88.0380556
"Existing Transit","Metra","Burlington Northern(BNSF)","Berwyn Metra","Pre-2000",41.8330556,-87.7936111
"Existing Transit","Metra","Burlington Northern(BNSF)","Brookfield Metra","Pre-2000",41.8219444,-87.8430556
"Existing Transit","Metra","Burlington Northern(BNSF)","Cicero Metra","Pre-2000",41.8441667,-87.7455556
"Existing Transit","Metra","Burlington Northern(BNSF)","Clarendon Hills Metra","Pre-2000",41.7969444,-87.9536111
"Existing Transit","Metra","Burlington Northern(BNSF)","Congress Park Metra","Pre-2000",41.8188889,-87.8575
"Existing Transit","Metra","Burlington Northern(BNSF)","Downers Grove Metra","Pre-2000",41.7952778,-88.0097222
"Existing Transit","Metra","Burlington Northern(BNSF)","Fairview Ave. Metra","Pre-2000",41.7952778,-87.9936111
"Existing Transit","Metra","Burlington Northern(BNSF)","Halsted Street Metra","Pre-2000",41.8602778,-87.6472222
"Existing Transit","Metra","Burlington Northern(BNSF)","Harlem Ave. Metra","Pre-2000",41.8313889,-87.8019444
"Existing Transit","Metra","Burlington Northern(BNSF)","Highlands Metra","Pre-2000",41.805,-87.9183333
"Existing Transit","Metra","Burlington Northern(BNSF)","Hinsdale Metra","Pre-2000",41.8027778,-87.9283333
"Existing Transit","Metra","Burlington Northern(BNSF)","Hollywood Metra","Pre-2000",41.8244444,-87.8338889
"Existing Transit","Metra","Burlington Northern(BNSF)","LaGrange Road Metra","Pre-2000",41.8158333,-87.8711111
"Existing Transit","Metra","Burlington Northern(BNSF)","Lavergne Metra","Pre-2000",41.8355556,-87.7833333
"Existing Transit","Metra","Burlington Northern(BNSF)","Lisle Metra","Pre-2000",41.7977778,-88.0719444
"Existing Transit","Metra","Burlington Northern(BNSF)","Naperville Metra","Pre-2000",41.7797222,-88.1455556
"Existing Transit","Metra","Burlington Northern(BNSF)","Riverside Metra","Pre-2000",41.8272222,-87.82
"Existing Transit","Metra","Burlington Northern(BNSF)","Route 59 Metra","Pre-2000",41.7777778,-88.2086111
"Existing Transit","Metra","Burlington Northern(BNSF)","Stone Ave. Metra","Pre-2000",41.8141667,-87.8783333
"Existing Transit","Metra","Burlington Northern(BNSF)","Western Avenue Metra","Pre-2000",41.8577778,-87.6852778
"Existing Transit","Metra","Burlington Northern(BNSF)","Western Springs Metra","Pre-2000",41.8088889,-87.9011111
"Existing Transit","Metra","Burlington Northern(BNSF)","West Hinsdale Metra","Pre-2000",41.7988889,-87.9452778
"Existing Transit","Metra","Burlington Northern(BNSF)","Westmont Metra","Pre-2000",41.7955556,-87.9763889
"Existing Transit","Metra","Heritage Corridor(HC)","Lemont Metra","Pre-2000",41.6736111,-88.0025
"Existing Transit","Metra","Heritage Corridor(HC)","Lockport Metra","Pre-2000",41.585,-88.0602778
"Existing Transit","Metra","Heritage Corridor(HC)","Summit Metra","Pre-2000",41.795,-87.8097222
"Existing Transit","Metra","Heritage Corridor(HC)","Willow Springs Metra","Pre-2000",41.7333333,-87.8783333
"Existing Transit","Metra","Heritage Corridor(HC), Rock Island(RI)","Joliet Metra","Pre-2000",41.5244444,-88.0797222
"Existing Transit","Metra","Metra Electric(ME)","103rd St. (Rosemoor) Metra","Pre-2000",41.7069444,-87.6072222
"Existing Transit","Metra","Metra Electric(ME)","107th St. Metra","Pre-2000",41.6997222,-87.6088889
"Existing Transit","Metra","Metra Electric(ME)","111th St. (Pullman) Metra","Pre-2000",41.6927778,-87.6105556
"Existing Transit","Metra","Metra Electric(ME)","147th St. Metra","Pre-2000",41.6227778,-87.6361111
"Existing Transit","Metra","Metra Electric(ME)","18th St. Metra","Pre-2000",41.8583333,-87.6180556
"Existing Transit","Metra","Metra Electric(ME)","211th St. Metra","Pre-2000",41.5061111,-87.6983333
"Existing Transit","Metra","Metra Electric(ME)","27th St. Metra","Pre-2000",41.8441667,-87.6133333
"Existing Transit","Metra","Metra Electric(ME)","47th St. (Kenwood) Metra","Pre-2000",41.8097222,-87.5913889
"Existing Transit","Metra","Metra Electric(ME)","51st/53rd St. (Hyde Park) Metra","Pre-2000",41.8,-87.5869444
"Existing Transit","Metra","Metra Electric(ME)","55th - 56th - 57th St. Metra","Pre-2000",41.7933333,-87.5875
"Existing Transit","Metra","Metra Electric(ME)","59th St. (U. of Chicago) Metra","Pre-2000",41.7880556,-87.5886111
"Existing Transit","Metra","Metra Electric(ME)","63rd St. Metra","Pre-2000",41.7802778,-87.5905556
"Existing Transit","Metra","Metra Electric(ME)","75th St. (Grand Crossing) Metra","Pre-2000",41.7588889,-87.5952778
"Existing Transit","Metra","Metra Electric(ME)","79th St. (Chatham) Metra","Pre-2000",41.7508333,-87.5972222
"Existing Transit","Metra","Metra Electric(ME)","83rd St. (Avalon Park) Metra","Pre-2000",41.7441667,-87.5986111
"Existing Transit","Metra","Metra Electric(ME)","83rd St. Metra","Pre-2000",41.745,-87.5516667
"Existing Transit","Metra","Metra Electric(ME)","87th St. Metra","Pre-2000",41.7377778,-87.5483333
"Existing Transit","Metra","Metra Electric(ME)","87th St. (Woodruff) Metra","Pre-2000",41.7369444,-87.6002778
"Existing Transit","Metra","Metra Electric(ME)","91st St. Metra","Pre-2000",41.7294444,-87.6019444
"Existing Transit","Metra","Metra Electric(ME)","95th St. Metra","Pre-2000",41.7219444,-87.6038889
"Existing Transit","Metra","Metra Electric(ME)","Ashland Metra","Pre-2000",41.6694444,-87.6605556
"Existing Transit","Metra","Metra Electric(ME)","Blue Island Metra","Pre-2000",41.6561111,-87.6758333
"Existing Transit","Metra","Metra Electric(ME)","Bryn Mawr Metra","Pre-2000",41.7661111,-87.5766667
"Existing Transit","Metra","Metra Electric(ME)","Burr Oak Metra","Pre-2000",41.6622222,-87.6688889
"Existing Transit","Metra","Metra Electric(ME)","Calumet Metra","Pre-2000",41.5736111,-87.6625
"Existing Transit","Metra","Metra Electric(ME)","Cheltenham (79th St.) Metra","Pre-2000",41.7522222,-87.5525
"Existing Transit","Metra","Metra Electric(ME)","Flossmoor Metra","Pre-2000",41.5430556,-87.6786111
"Existing Transit","Metra","Metra Electric(ME)","Harvey Metra","Pre-2000",41.6083333,-87.6438889
"Existing Transit","Metra","Metra Electric(ME)","Hazel Crest Metra","Pre-2000",41.5808333,-87.6586111
"Existing Transit","Metra","Metra Electric(ME)","Homewood Metra","Pre-2000",41.5622222,-87.6686111
"Existing Transit","Metra","Metra Electric(ME)","Ivanhoe Metra","Pre-2000",41.6333333,-87.6302778
"Existing Transit","Metra","Metra Electric(ME)","Kensington Metra","Pre-2000",41.6858333,-87.6122222
"Existing Transit","Metra","Metra Electric(ME)","Matteson Metra","Pre-2000",41.4986111,-87.7022222
"Existing Transit","Metra","Metra Electric(ME)","McCormick Place Metra","Pre-2000",41.8513889,-87.6163889
"Existing Transit","Metra","Metra Electric(ME)","Museum Campus/11th St. Metra","Pre-2000",41.8686111,-87.6213889
"Existing Transit","Metra","Metra Electric(ME)","Olympia Fields Metra","Pre-2000",41.5213889,-87.69
"Existing Transit","Metra","Metra Electric(ME)","Racine Metra","Pre-2000",41.6741667,-87.6519444
"Existing Transit","Metra","Metra Electric(ME)","Randolph St. Metra","Pre-2000",41.8841667,-87.6230556
"Existing Transit","Metra","Metra Electric(ME)","Richton Park Metra","Pre-2000",41.4855556,-87.7094444
"Existing Transit","Metra","Metra Electric(ME)","Riverdale Metra","Pre-2000",41.6466667,-87.6233333
"Existing Transit","Metra","Metra Electric(ME)","South Chicago (93rd) Metra","Pre-2000",41.7266667,-87.5477778
"Existing Transit","Metra","Metra Electric(ME)","South Shore Metra","Pre-2000",41.7652778,-87.5658333
"Existing Transit","Metra","Metra Electric(ME)","State St. Metra","Pre-2000",41.6744444,-87.6219444
"Existing Transit","Metra","Metra Electric(ME)","Stewart Ridge Metra","Pre-2000",41.6744444,-87.6316667
"Existing Transit","Metra","Metra Electric(ME)","Stony Island Metra","Pre-2000",41.7661111,-87.5869444
"Existing Transit","Metra","Metra Electric(ME)","University Park Metra","Pre-2000",41.4594444,-87.7233333
"Existing Transit","Metra","Metra Electric(ME)","Van Buren St. Metra","Pre-2000",41.8769444,-87.6230556
"Existing Transit","Metra","Metra Electric(ME)","West Pullman Metra","Pre-2000",41.6741667,-87.6422222
"Existing Transit","Metra","Metra Electric(ME)","Windsor Park Metra","Pre-2000",41.7586111,-87.5594444
"Existing Transit","Metra","Milwaukee North(MD-N)","Deerfield Metra","Pre-2000",42.1680556,-87.85
"Existing Transit","Metra","Milwaukee North(MD-N)","Edgebrook Metra","Pre-2000",41.9977778,-87.7655556
"Existing Transit","Metra","Milwaukee North(MD-N)","Forest Glen Metra","Pre-2000",41.9780556,-87.7555556
"Existing Transit","Metra","Milwaukee North(MD-N)","Fox Lake Metra","Pre-2000",42.3983333,-88.1822222
"Existing Transit","Metra","Milwaukee North(MD-N)","Glen/N. Glenview Metra","Pre-2000",42.0975,-87.8158333
"Existing Transit","Metra","Milwaukee North(MD-N)","Glenview Metra","Pre-2000",42.075,-87.8055556
"Existing Transit","Metra","Milwaukee North(MD-N)","Golf Metra","Pre-2000",42.0583333,-87.7969444
"Existing Transit","Metra","Milwaukee North(MD-N)","Grayland Metra","Pre-2000",41.9488889,-87.7402778
"Existing Transit","Metra","Milwaukee North(MD-N)","Grayslake Metra","Pre-2000",42.3336111,-88.0433333
"Existing Transit","Metra","Milwaukee North(MD-N)","Healy Metra","Pre-2000",41.9247222,-87.7277778
"Existing Transit","Metra","Milwaukee North(MD-N)","Ingleside Metra","Pre-2000",42.3838889,-88.1536111
"Existing Transit","Metra","Milwaukee North(MD-N)","Lake-Cook Metra","Pre-2000",42.1516667,-87.8413889
"Existing Transit","Metra","Milwaukee North(MD-N)","Lake Forest Metra","Pre-2000",42.2236111,-87.8747222
"Existing Transit","Metra","Milwaukee North(MD-N)","Libertyville Metra","Pre-2000",42.2911111,-87.9563889
"Existing Transit","Metra","Milwaukee North(MD-N)","Long Lake Metra","Pre-2000",42.3680556,-88.1280556
"Existing Transit","Metra","Milwaukee North(MD-N)","Mayfair Metra","Pre-2000",41.9597222,-87.7458333
"Existing Transit","Metra","Milwaukee North(MD-N)","Morton Grove Metra","Pre-2000",42.035,-87.7852778
"Existing Transit","Metra","Milwaukee North(MD-N)","Northbrook Metra","Pre-2000",42.1269444,-87.8277778
"Existing Transit","Metra","Milwaukee North(MD-N)","Prairie Crossing Metra","Pre-2000",42.3208333,-88.0152778
"Existing Transit","Metra","Milwaukee North(MD-N)","Round Lake Metra","Pre-2000",42.3544444,-88.0941667
"Existing Transit","Metra","Milwaukee West(MD-W)","Bartlett Metra","Pre-2000",41.9922222,-88.1838889
"Existing Transit","Metra","Milwaukee West(MD-W)","Bensenville Metra","Pre-2000",41.9569444,-87.9419444
"Existing Transit","Metra","Milwaukee West(MD-W)","Big Timber Metra","Pre-2000",42.0586111,-88.3277778
"Existing Transit","Metra","Milwaukee West(MD-W)","Elgin Metra","Pre-2000",42.0361111,-88.2861111
"Existing Transit","Metra","Milwaukee West(MD-W)","Elmwood Park Metra","Pre-2000",41.9247222,-87.8147222
"Existing Transit","Metra","Milwaukee West(MD-W)","Franklin Park Metra","Pre-2000",41.9366667,-87.8663889
"Existing Transit","Metra","Milwaukee West(MD-W)","Galewood Metra","Pre-2000",41.9163889,-87.7858333
"Existing Transit","Metra","Milwaukee West(MD-W)","Grand/Cicero Metra","2006",41.9144444,-87.7461111
"Existing Transit","Metra","Milwaukee West(MD-W)","Hanover Park Metra","Pre-2000",41.9880556,-88.1491667
"Existing Transit","Metra","Milwaukee West(MD-W)","Hanson Park Metra","Pre-2000",41.9166667,-87.7669444
"Existing Transit","Metra","Milwaukee West(MD-W)","Itasca Metra","Pre-2000",41.9713889,-88.0141667
"Existing Transit","Metra","Milwaukee West(MD-W)","Mannheim Metra","Pre-2000",41.9416667,-87.8833333
"Existing Transit","Metra","Milwaukee West(MD-W)","Mars Metra","Pre-2000",41.9191667,-87.7944444
"Existing Transit","Metra","Milwaukee West(MD-W)","Medinah Metra","Pre-2000",41.9780556,-88.0508333
"Existing Transit","Metra","Milwaukee West(MD-W)","Mont Clare Metra","Pre-2000",41.9216667,-87.8016667
"Existing Transit","Metra","Milwaukee West(MD-W)","National St Metra","Pre-2000",42.0263889,-88.2788889
"Existing Transit","Metra","Milwaukee West(MD-W)","Roselle Metra","Pre-2000",41.9813889,-88.0672222
"Existing Transit","Metra","Milwaukee West(MD-W)","Schaumburg Metra","Pre-2000",41.9891667,-88.1180556
"Existing Transit","Metra","Milwaukee West(MD-W)","Wood Dale Metra","Pre-2000",41.9625,-87.9752778
"Existing Transit","Metra","Milwaukee West(MD-W), North Central Service(NCS), Milwaukee North(MD-N)","Western Ave Metra","Pre-2000",41.8891667,-87.6880556
"Existing Transit","Metra","North Central Service(NCS)","Antioch Metra","Pre-2000",42.4811111,-88.0925
"Existing Transit","Metra","North Central Service(NCS)","Buffalo Grove Metra","Pre-2000",42.1686111,-87.9413889
"Existing Transit","Metra","North Central Service(NCS)","Franklin Pk Metra","2006",41.9377778,-87.86
"Existing Transit","Metra","North Central Service(NCS)","Lake Villa Metra","Pre-2000",42.4175,-88.0794444
"Existing Transit","Metra","North Central Service(NCS)","Mundelein Metra","Pre-2000",42.2669444,-87.9980556
"Existing Transit","Metra","North Central Service(NCS)","O'Hare Transfer Metra","Pre-2000",41.995,-87.8805556
"Existing Transit","Metra","North Central Service(NCS)","Prairie Crossing. Metra","Pre-2000",42.3180556,-88.0172222
"Existing Transit","Metra","North Central Service(NCS)","Prairie View Metra","Pre-2000",42.1980556,-87.9558333
"Existing Transit","Metra","North Central Service(NCS)","Prospect Hts Metra","Pre-2000",42.0922222,-87.9080556
"Existing Transit","Metra","North Central Service(NCS)","Rosemont Metra","2006",41.9761111,-87.8738889
"Existing Transit","Metra","North Central Service(NCS)","Round Lake Beach Metra","Pre-2000",42.385,-88.0655556
"Existing Transit","Metra","North Central Service(NCS)","Schiller Park Metra","2006",41.9627778,-87.8705556
"Existing Transit","Metra","North Central Service(NCS)","Vernon Hills Metra","Pre-2000",42.2155556,-87.9644444
"Existing Transit","Metra","North Central Service(NCS)","Washington St (Grayslake) Metra","2006",42.3591667,-88.0505556
"Existing Transit","Metra","North Central Service(NCS)","Wheeling Metra","Pre-2000",42.1363889,-87.9272222
"Existing Transit","Metra","North Central Service(NCS), Milwaukee West(MD-W)","River Grove Metra","Pre-2000",41.9311111,-87.8361111
"Existing Transit","Metra","Rock Island(RI)","103rd St Metra","Pre-2000",41.7061111,-87.6688889
"Existing Transit","Metra","Rock Island(RI)","103rd St.-Washington Hts. Metra","Pre-2000",41.7055556,-87.6558333
"Existing Transit","Metra","Rock Island(RI)","107th St Metra","Pre-2000",41.6988889,-87.67
"Existing Transit","Metra","Rock Island(RI)","111th St Metra","Pre-2000",41.6927778,-87.6705556
"Existing Transit","Metra","Rock Island(RI)","115th St Metra","Pre-2000",41.685,-87.6716667
"Existing Transit","Metra","Rock Island(RI)","119th St Metra","Pre-2000",41.6763889,-87.6725
"Existing Transit","Metra","Rock Island(RI)","123rd St Metra","Pre-2000",41.67,-87.6736111
"Existing Transit","Metra","Rock Island(RI)","91st St Metra","Pre-2000",41.7280556,-87.6672222
"Existing Transit","Metra","Rock Island(RI)","95th St.-Longwood Metra","Pre-2000",41.7211111,-87.6502778
"Existing Transit","Metra","Rock Island(RI)","95th St Metra","Pre-2000",41.7213889,-87.6672222
"Existing Transit","Metra","Rock Island(RI)","99th St Metra","Pre-2000",41.7136111,-87.6675
"Existing Transit","Metra","Rock Island(RI)","Blue Island-Vermont Metra","Pre-2000",41.6547222,-87.6777778
"Existing Transit","Metra","Rock Island(RI)","Brainerd Metra","Pre-2000",41.7322222,-87.6588889
"Existing Transit","Metra","Rock Island(RI)","Gresham Metra","Pre-2000",41.7363889,-87.6447222
"Existing Transit","Metra","Rock Island(RI)","Hickory Creek Metra","Pre-2000",41.5486111,-87.8455556
"Existing Transit","Metra","Rock Island(RI)","LaSalle Street Metra","Pre-2000",41.8763889,-87.6322222
"Existing Transit","Metra","Rock Island(RI)","Midlothian Metra","Pre-2000",41.6263889,-87.7116667
"Existing Transit","Metra","Rock Island(RI)","Mokena Metra","Pre-2000",41.5308333,-87.8866667
"Existing Transit","Metra","Rock Island(RI)","New Lenox Metra","Pre-2000",41.5144444,-87.9652778
"Existing Transit","Metra","Rock Island(RI)","Oak Forest Metra","Pre-2000",41.6044444,-87.7383333
"Existing Transit","Metra","Rock Island(RI)","Prairie St Metra","Pre-2000",41.6625,-87.675
"Existing Transit","Metra","Rock Island(RI)","Robbins Metra","Pre-2000",41.6408333,-87.6944444
"Existing Transit","Metra","Rock Island(RI)","Tinley-80th Metra","Pre-2000",41.5644444,-87.8094444
"Existing Transit","Metra","Rock Island(RI)","Tinley Park Metra","Pre-2000",41.5758333,-87.7827778
"Existing Transit","Metra","Southwest Service(SWS)","Ashburn Metra","Pre-2000",41.7416667,-87.7125
"Existing Transit","Metra","Southwest Service(SWS)","Chicago Ridge Metra","Pre-2000",41.7033333,-87.7802778
"Existing Transit","Metra","Southwest Service(SWS)","Laraway Road Metra","2006",41.4847222,-87.9597222
"Existing Transit","Metra","Southwest Service(SWS)","Manhattan Metra","2006",41.4183333,-87.9891667
"Existing Transit","Metra","Southwest Service(SWS)","Oak Lawn Metra","Pre-2000",41.7194444,-87.7486111
"Existing Transit","Metra","Southwest Service(SWS)","Orland Park 143rd Metra","Pre-2000",41.6305556,-87.8591667
"Existing Transit","Metra","Southwest Service(SWS)","Orland Park 153rd Metra","Pre-2000",41.6094444,-87.8733333
"Existing Transit","Metra","Southwest Service(SWS)","Orland Park 179th Metra","Pre-2000",41.5638889,-87.9025
"Existing Transit","Metra","Southwest Service(SWS)","Palos Heights Metra","Pre-2000",41.6819444,-87.8069444
"Existing Transit","Metra","Southwest Service(SWS)","Palos Park Metra","Pre-2000",41.6688889,-87.8202778
"Existing Transit","Metra","Southwest Service(SWS)","Worth Metra","Pre-2000",41.6913889,-87.7958333
"Existing Transit","Metra","Southwest Service(SWS)","Wrightwood Metra","Pre-2000",41.7488889,-87.7036111
"Existing Transit","Metra","Southwest Service(SWS), Burlington Northern(BNSF), North Central Service(NCS), Heritage Corridor(HC), Milwaukee West(MD-W), Milwaukee North(MD-N)","Chicago Union Station Metra","Pre-2000",41.8788889,-87.6388889
"Existing Transit","Metra","Union Pacific North(UP-N)","Braeside Metra","Pre-2000",42.1527778,-87.7725
"Existing Transit","Metra","Union Pacific North(UP-N)","Central St. Metra","Pre-2000",42.0641667,-87.6980556
"Existing Transit","Metra","Union Pacific North(UP-N)","Evanston (Davis St.) Metra","Pre-2000",42.0480556,-87.6847222
"Existing Transit","Metra","Union Pacific North(UP-N)","Fort Sheridan Metra","Pre-2000",42.2175,-87.8208333
"Existing Transit","Metra","Union Pacific North(UP-N)","Glencoe Metra","Pre-2000",42.1355556,-87.7580556
"Existing Transit","Metra","Union Pacific North(UP-N)","Great Lakes Metra","Pre-2000",42.3069444,-87.8463889
"Existing Transit","Metra","Union Pacific North(UP-N)","Highland Park Metra","Pre-2000",42.1833333,-87.7975
"Existing Transit","Metra","Union Pacific North(UP-N)","Highwood Metra","Pre-2000",42.2033333,-87.8105556
"Existing Transit","Metra","Union Pacific North(UP-N)","Hubbard Woods Metra","Pre-2000",42.1180556,-87.7436111
"Existing Transit","Metra","Union Pacific North(UP-N)","Indian Hill Metra","Pre-2000",42.0944444,-87.7238889
"Existing Transit","Metra","Union Pacific North(UP-N)","Kenilworth Metra","Pre-2000",42.0863889,-87.7166667
"Existing Transit","Metra","Union Pacific North(UP-N)","Kenosha Metra","Pre-2000",42.5858333,-87.8258333
"Existing Transit","Metra","Union Pacific North(UP-N)","Lake Bluff Metra","Pre-2000",42.2797222,-87.8466667
"Existing Transit","Metra","Union Pacific North(UP-N)","Lake Forest. Metra","Pre-2000",42.2525,-87.8397222
"Existing Transit","Metra","Union Pacific North(UP-N)","Main St. Metra","Pre-2000",42.0333333,-87.68
"Existing Transit","Metra","Union Pacific North(UP-N)","North Chicago Metra","Pre-2000",42.3286111,-87.8369444
"Existing Transit","Metra","Union Pacific North(UP-N)","Ravenswood Metra","Pre-2000",41.9683333,-87.6744444
"Existing Transit","Metra","Union Pacific North(UP-N)","Ravinia Metra","Pre-2000",42.165,-87.7827778
"Existing Transit","Metra","Union Pacific North(UP-N)","Ravinia Park Metra","Pre-2000",42.1580556,-87.7769444
"Existing Transit","Metra","Union Pacific North(UP-N)","Rogers Park Metra","Pre-2000",42.0094444,-87.6755556
"Existing Transit","Metra","Union Pacific North(UP-N)","Waukegan Metra","Pre-2000",42.3605556,-87.8283333
"Existing Transit","Metra","Union Pacific North(UP-N)","Wilmette Metra","Pre-2000",42.0772222,-87.7091667
"Existing Transit","Metra","Union Pacific North(UP-N)","Winnetka Metra","Pre-2000",42.1052778,-87.7327778
"Existing Transit","Metra","Union Pacific North(UP-N)","Winthrop Harbor Metra","Pre-2000",42.4827778,-87.8161111
"Existing Transit","Metra","Union Pacific North(UP-N)","Zion Metra","Pre-2000",42.4491667,-87.8180556
"Existing Transit","Metra","Union Pacific North(UP-N), Union Pacific Northwest(UP-NW)","Clybourn Metra","Pre-2000",41.9169444,-87.6680556
"Existing Transit","Metra","Union Pacific Northwest(UP-NW)","Arlington Heights Metra","Pre-2000",42.0841667,-87.9836111
"Existing Transit","Metra","Union Pacific Northwest(UP-NW)","Arlington Park Metra","Pre-2000",42.0952778,-88.0091667
"Existing Transit","Metra","Union Pacific Northwest(UP-NW)","Barrington Metra","Pre-2000",42.1527778,-88.1319444
"Existing Transit","Metra","Union Pacific Northwest(UP-NW)","Cary Metra","Pre-2000",42.2088889,-88.2413889
"Existing Transit","Metra","Union Pacific Northwest(UP-NW)","Crystal Lake Metra","Pre-2000",42.2441667,-88.3172222
"Existing Transit","Metra","Union Pacific Northwest(UP-NW)","Cumberland Metra","Pre-2000",42.0525,-87.9122222
"Existing Transit","Metra","Union Pacific Northwest(UP-NW)","Dee Road Metra","Pre-2000",42.0241667,-87.8561111
"Existing Transit","Metra","Union Pacific Northwest(UP-NW)","Des Plaines Metra","Pre-2000",42.0408333,-87.8866667
"Existing Transit","Metra","Union Pacific Northwest(UP-NW)","Edison Park Metra","Pre-2000",42.0022222,-87.8175
"Existing Transit","Metra","Union Pacific Northwest(UP-NW)","Fox River Grove Metra","Pre-2000",42.1977778,-88.2194444
"Existing Transit","Metra","Union Pacific Northwest(UP-NW)","Gladstone Park Metra","Pre-2000",41.9797222,-87.7780556
"Existing Transit","Metra","Union Pacific Northwest(UP-NW)","Harvard Metra","Pre-2000",42.4197222,-88.6175
"Existing Transit","Metra","Union Pacific Northwest(UP-NW)","Irving Park Metra","Pre-2000",41.9525,-87.7297222
"Existing Transit","Metra","Union Pacific Northwest(UP-NW)","Jefferson Park Metra","Pre-2000",41.9713889,-87.7633333
"Existing Transit","Metra","Union Pacific Northwest(UP-NW)","McHenry Metra","Pre-2000",42.3433333,-88.2761111
"Existing Transit","Metra","Union Pacific Northwest(UP-NW)","Mt. Prospect Metra","Pre-2000",42.0630556,-87.9361111
"Existing Transit","Metra","Union Pacific Northwest(UP-NW)","Norwood Park Metra","Pre-2000",41.9916667,-87.7988889
"Existing Transit","Metra","Union Pacific Northwest(UP-NW)","Palatine Metra","Pre-2000",42.1130556,-88.0483333
"Existing Transit","Metra","Union Pacific Northwest(UP-NW)","Park Ridge Metra","Pre-2000",42.0102778,-87.8316667
"Existing Transit","Metra","Union Pacific Northwest(UP-NW)","Pingree Road Metra","2005",42.2341667,-88.2980556
"Existing Transit","Metra","Union Pacific Northwest(UP-NW)","Woodstock Metra","Pre-2000",42.3169444,-88.4475
"Existing Transit","Metra","Union Pacific West(UP-W)","Bellwood Metra","Pre-2000",41.8913889,-87.8825
"Existing Transit","Metra","Union Pacific West(UP-W)","Berkeley Metra","Pre-2000",41.8961111,-87.9152778
"Existing Transit","Metra","Union Pacific West(UP-W)","College Ave Metra","Pre-2000",41.8683333,-88.0902778
"Existing Transit","Metra","Union Pacific West(UP-W)","Elburn Metra","2006",41.8905556,-88.4638889
"Existing Transit","Metra","Union Pacific West(UP-W)","Elmhurst Metra","Pre-2000",41.8997222,-87.9408333
"Existing Transit","Metra","Union Pacific West(UP-W)","Geneva Metra","Pre-2000",41.8816667,-88.31
"Existing Transit","Metra","Union Pacific West(UP-W)","Glen Ellyn Metra","Pre-2000",41.8766667,-88.0647222
"Existing Transit","Metra","Union Pacific West(UP-W)","Kedzie Metra","Pre-2000",41.8883333,-87.7069444
"Existing Transit","Metra","Union Pacific West(UP-W)","La Fox Metra","2006",41.8866667,-88.4122222
"Existing Transit","Metra","Union Pacific West(UP-W)","Lombard Metra","Pre-2000",41.8866667,-88.0186111
"Existing Transit","Metra","Union Pacific West(UP-W)","Maywood Metra","Pre-2000",41.8883333,-87.8386111
"Existing Transit","Metra","Union Pacific West(UP-W)","Melrose Park Metra","Pre-2000",41.8902778,-87.8555556
"Existing Transit","Metra","Union Pacific West(UP-W)","Oak Park Metra","Pre-2000",41.8869444,-87.8011111
"Existing Transit","Metra","Union Pacific West(UP-W)","River Forest Metra","Pre-2000",41.8869444,-87.825
"Existing Transit","Metra","Union Pacific West(UP-W)","Villa Park Metra","Pre-2000",41.8963889,-87.9775
"Existing Transit","Metra","Union Pacific West(UP-W)","West Chicago Metra","Pre-2000",41.8811111,-88.1988889
"Existing Transit","Metra","Union Pacific West(UP-W)","Wheaton Metra","Pre-2000",41.8644444,-88.1119444
"Existing Transit","Metra","Union Pacific West(UP-W)","Winfield Metra","Pre-2000",41.87,-88.1569444
"Existing Transit","Metra","Union Pacific West(UP-W), Union Pacific North(UP-N), Union Pacific Northwest(UP-NW)","Chicago OTC Metra","Pre-2000",41.8822222,-87.6405556
"Existing Transit","North Indiana Commuter Transportation District","South Shore Line","115th Street/Kensington","Pre-2000",41.685833,-87.612222
"Existing Transit","North Indiana Commuter Transportation District","South Shore Line","57th Street","Pre-2000",41.793333,-87.5875
"Existing Transit","North Indiana Commuter Transportation District","South Shore Line","63rd Street","Pre-2000",41.780278,-87.590556
"Existing Transit","North Indiana Commuter Transportation District","South Shore Line","Beverly Shores","Pre-2000",41.673146,-86.98548
"Existing Transit","North Indiana Commuter Transportation District","South Shore Line","Dune Park","Pre-2000",41.644825,-87.061063
"Existing Transit","North Indiana Commuter Transportation District","South Shore Line","East Chicago","Pre-2000",41.612185,-87.4801661
"Existing Transit","North Indiana Commuter Transportation District","South Shore Line","Gary Airport","Pre-2000",41.605491,-87.394519
"Existing Transit","North Indiana Commuter Transportation District","South Shore Line","Gary Metro Center","Pre-2000",41.604638,-87.337211
"Existing Transit","North Indiana Commuter Transportation District","South Shore Line","Hammond","Pre-2000",41.630998,-87.5153021
"Existing Transit","North Indiana Commuter Transportation District","South Shore Line","Hegewisch","Pre-2000",41.646544,-87.544019
"Existing Transit","North Indiana Commuter Transportation District","South Shore Line","Hudson Lake","Pre-2000",41.709476,-86.53758
"Existing Transit","North Indiana Commuter Transportation District","South Shore Line","McCormick Place","Pre-2000",41.851389,-87.616389
"Existing Transit","North Indiana Commuter Transportation District","South Shore Line","Michigan City-11th Street","Pre-2000",41.711729,-86.897838
"Existing Transit","North Indiana Commuter Transportation District","South Shore Line","Michigan City-Carroll Avenue","Pre-2000",41.713255,-86.867132
"Existing Transit","North Indiana Commuter Transportation District","South Shore Line","Millenium Station at Randolph Street","Pre-2000",41.884167,-87.623056
"Existing Transit","North Indiana Commuter Transportation District","South Shore Line","Miller","Pre-2000",41.597985,-87.269792
"Existing Transit","North Indiana Commuter Transportation District","South Shore Line","Museum Campus/11th Street","Pre-2000",41.868611,-87.621389
"Existing Transit","North Indiana Commuter Transportation District","South Shore Line","Portage/Odgen Dunes","Pre-2000",41.617344,-87.186816
"Existing Transit","North Indiana Commuter Transportation District","South Shore Line","South Bend Airport","Pre-2000",41.700785,-86.311078
"Existing Transit","North Indiana Commuter Transportation District","South Shore Line","Van Buren Street","Pre-2000",41.876944,-87.623056
"Proposed Transit","Metra STAR Line","Commuter Rail","Arlington Heights Road","",42.039899999999996,-87.98339988
"Proposed Transit","Metra STAR Line","Commuter Rail","Aurora","",41.810699969999995,-88.22649996
"Proposed Transit","Metra STAR Line","Commuter Rail","Barrington Rd","",42.06670002,-88.14449988
"Proposed Transit","Metra STAR Line","Commuter Rail","Busse Road","",42.02510004,-87.95999988
"Proposed Transit","Metra STAR Line","Commuter Rail","Elmhurst Rd test","",42.01820001,-87.94050012
"Proposed Transit","Metra STAR Line","Commuter Rail","Golf Road","",42.05130003,-88.00660008
"Proposed Transit","Metra STAR Line","Commuter Rail","Ikea","",42.05819997,-88.03389996
"Proposed Transit","Metra STAR Line","Commuter Rail","Joliet","",41.581600019999996,-88.15290012
"Proposed Transit","Metra STAR Line","Commuter Rail","Naperville","",41.70349998,-88.23499991999999
"Proposed Transit","Metra STAR Line","Commuter Rail","North Avenue","",41.919399989999995,-88.23560004
"Proposed Transit","Metra STAR Line","Commuter Rail","Northwest Naperville","",41.776499969999996,-88.23229991999999
"Proposed Transit","Metra STAR Line","Commuter Rail","Plainfield","",41.62239999,-88.20979992
"Proposed Transit","Metra STAR Line","Commuter Rail","Prairie Stone/ Sears","",42.06660003,-88.21050011999999
"Proposed Transit","Metra STAR Line","Commuter Rail","Roselle Rd","",42.06380004,-88.07939999999999
"Proposed Transit","Metra STAR Line","Commuter Rail","Spaulding","",42.00290001,-88.23319991999999
"Proposed Transit","Metra STAR Line","Commuter Rail","Warrenville","",41.83610004,-88.21280016
"Proposed Transit","Metra STAR Line","Commuter Rail","West Chicago","",41.8833,-88.20920016
"Proposed Transit","METRA UP Northwest Extention","Commuter Rail","Johnsburg","",42.37579998,-88.28650008
"Proposed Transit","Orange Line Extension","Heavy Rail","Ford City Mall","",41.7559311,-87.7415706
"Proposed Transit","Orange Line Extension","Heavy Rail","Marquette Road","",41.77122021,-87.7372596
"Proposed Transit","Red Line Extension","Heavy Rail","103rd","",41.706117809999995,-87.63315444000001
"Proposed Transit","Red Line Extension","Heavy Rail","111th","",41.69256381,-87.63289703999999
"Proposed Transit","Red Line Extension","Heavy Rail","115th","",41.68407105,-87.62283323999999
"Proposed Transit","Red Line Extension","Heavy Rail","130th","",41.659905509999994,-87.59721275999999
"Proposed Transit","Yellow Line Extension","Heavy Rail","Oakton St.","",42.026268869999996,-87.74707319999999
"Proposed Transit","Yellow Line Extension","Heavy Rail","Old Orchard Mall","",42.06182229,-87.75438516
